{"type":"FeatureCollection","name":"centers_1914","crs":{"type":"name","properties":{"name":"urn:ogc:def:crs:OGC:1.3:CRS84"}},"features":[{"type":"Feature","properties":{"center_id":"center_1914_1","year":1914,"name":"Барнаул","unit_name":"Барнаульский уезд","admin_parent":null,"population":1496331.0,"source_layer":"adm1914_centers_with_cities.geojson","raw_objectid":1},"geometry":{"type":"Point","coordinates":[83.71317156854163,53.34195824222154]}},{"type":"Feature","properties":{"center_id":"center_1914_2","year":1914,"name":"Бийский уезд","unit_name":"Бийский уезд","admin_parent":null,"population":497057.0,"source_layer":"adm1914_centers_with_cities.geojson","raw_objectid":2},"geometry":{"type":"Point","coordinates":[85.18072266975338,52.54532529890895]}},{"type":"Feature","properties":{"center_id":"center_1914_3","year":1914,"name":"Змеиногорский уезд","unit_name":"Змеиногорский уезд","admin_parent":null,"population":469517.0,"source_layer":"adm1914_centers_with_cities.geojson","raw_objectid":3},"geometry":{"type":"Point","coordinates":[82.18258958702312,51.163057391419365]}},{"type":"Feature","properties":{"center_id":"center_1914_4","year":1914,"name":"Кузнецкий уезд","unit_name":"Кузнецкий уезд","admin_parent":null,"population":336673.0,"source_layer":"adm1914_centers_with_cities.geojson","raw_objectid":4},"geometry":{"type":"Point","coordinates":[87.14226912531078,53.750871170803734]}},{"type":"Feature","properties":{"center_id":"center_1914_5","year":1914,"name":"Каинск","unit_name":"Каинский уезд","admin_parent":null,"population":409689.0,"source_layer":"adm1914_centers_with_cities.geojson","raw_objectid":5},"geometry":{"type":"Point","coordinates":[78.29763684498155,55.46059032450066]}},{"type":"Feature","properties":{"center_id":"center_1914_6","year":1914,"name":"Томский уезд","unit_name":"Томский уезд","admin_parent":null,"population":678161.0,"source_layer":"adm1914_centers_with_cities.geojson","raw_objectid":6},"geometry":{"type":"Point","coordinates":[84.98030458536388,56.50149254462763]}},{"type":"Feature","properties":{"center_id":"center_1914_7","year":1914,"name":"Мариинский уезд","unit_name":"Мариинский уезд","admin_parent":null,"population":294217.0,"source_layer":"adm1914_centers_with_cities.geojson","raw_objectid":7},"geometry":{"type":"Point","coordinates":[87.73813031122995,56.19897089188041]}},{"type":"Feature","properties":{"center_id":"center_1914_8","year":1914,"name":"Павлодарский уезд","unit_name":"Павлодарский уезд","admin_parent":null,"population":201200.0,"source_layer":"adm1914_centers_with_cities.geojson","raw_objectid":8},"geometry":{"type":"Point","coordinates":[76.97876438200336,52.30088594950061]}},{"type":"Feature","properties":{"center_id":"center_1914_9","year":1914,"name":"Семипалатинский уезд","unit_name":"Семипалатинский уезд","admin_parent":null,"population":222100.0,"source_layer":"adm1914_centers_with_cities.geojson","raw_objectid":9},"geometry":{"type":"Point","coordinates":[80.27412355752492,50.40866492694224]}},{"type":"Feature","properties":{"center_id":"center_1914_10","year":1914,"name":"Усть-Каменогорский уезд","unit_name":"Усть-Каменогорский уезд","admin_parent":null,"population":149200.0,"source_layer":"adm1914_centers_with_cities.geojson","raw_objectid":10},"geometry":{"type":"Point","coordinates":[82.60389492956277,49.95839587064114]}},{"type":"Feature","properties":{"center_id":"center_1914_11","year":1914,"name":"Зайсанский уезд","unit_name":"Зайсанский уезд","admin_parent":null,"population":125200.0,"source_layer":"adm1914_centers_with_cities.geojson","raw_objectid":11},"geometry":{"type":"Point","coordinates":[84.87402226754436,47.482045968869855]}},{"type":"Feature","properties":{"center_id":"center_1914_12","year":1914,"name":"Омский уезд","unit_name":"Омский уезд","admin_parent":null,"population":384423.0,"source_layer":"adm1914_centers_with_cities.geojson","raw_objectid":12},"geometry":{"type":"Point","coordinates":[73.39206290183343,54.97955691378739]}},{"type":"Feature","properties":{"center_id":"center_1914_13","year":1914,"name":"Тарский уезд","unit_name":"Тарский уезд","admin_parent":null,"population":267244.0,"source_layer":"adm1914_centers_with_cities.geojson","raw_objectid":13},"geometry":{"type":"Point","coordinates":[74.36969503188064,56.89828157424531]}},{"type":"Feature","properties":{"center_id":"center_1914_14","year":1914,"name":"Тюкалинский уезд","unit_name":"Тюкалинский уезд","admin_parent":null,"population":355288.0,"source_layer":"adm1914_centers_with_cities.geojson","raw_objectid":14},"geometry":{"type":"Point","coordinates":[72.20492706822266,55.86273709856474]}},{"type":"Feature","properties":{"center_id":"center_1914_15","year":1914,"name":"Ишимский уезд","unit_name":"Ишимский уезд","admin_parent":null,"population":393237.0,"source_layer":"adm1914_centers_with_cities.geojson","raw_objectid":15},"geometry":{"type":"Point","coordinates":[69.45106111792559,56.108435975511824]}},{"type":"Feature","properties":{"center_id":"center_1914_16","year":1914,"name":"Курганский уезд","unit_name":"Курганский уезд","admin_parent":null,"population":331704.0,"source_layer":"adm1914_centers_with_cities.geojson","raw_objectid":16},"geometry":{"type":"Point","coordinates":[65.32123391584341,55.46151589460956]}},{"type":"Feature","properties":{"center_id":"center_1914_17","year":1914,"name":"Тюменский уезд","unit_name":"Тюменский уезд","admin_parent":null,"population":110535.0,"source_layer":"adm1914_centers_with_cities.geojson","raw_objectid":17},"geometry":{"type":"Point","coordinates":[65.53306975817397,57.14851642955396]}},{"type":"Feature","properties":{"center_id":"center_1914_18","year":1914,"name":"Ялуторовский уезд","unit_name":"Ялуторовский уезд","admin_parent":null,"population":231227.0,"source_layer":"adm1914_centers_with_cities.geojson","raw_objectid":18},"geometry":{"type":"Point","coordinates":[66.30858328581232,56.657042711518216]}},{"type":"Feature","properties":{"center_id":"center_1914_19","year":1914,"name":"Туринский уезд","unit_name":"Туринский уезд","admin_parent":null,"population":99469.0,"source_layer":"adm1914_centers_with_cities.geojson","raw_objectid":19},"geometry":{"type":"Point","coordinates":[63.67513337950254,58.04822929349224]}},{"type":"Feature","properties":{"center_id":"center_1914_20","year":1914,"name":"Берёзовский уезд","unit_name":"Берёзовский уезд","admin_parent":null,"population":26302.0,"source_layer":"adm1914_centers_with_cities.geojson","raw_objectid":20},"geometry":{"type":"Point","coordinates":[65.02582980587432,63.92305896038085]}},{"type":"Feature","properties":{"center_id":"center_1914_21","year":1914,"name":"Сургутский уезд","unit_name":"Сургутский уезд","admin_parent":null,"population":9360.0,"source_layer":"adm1914_centers_with_cities.geojson","raw_objectid":21},"geometry":{"type":"Point","coordinates":[73.3894586813332,61.256010821411444]}},{"type":"Feature","properties":{"center_id":"center_1914_22","year":1914,"name":"Тобольский уезд","unit_name":"Тобольский уезд","admin_parent":null,"population":138023.0,"source_layer":"adm1914_centers_with_cities.geojson","raw_objectid":22},"geometry":{"type":"Point","coordinates":[68.30005398353308,58.20959259313967]}},{"type":"Feature","properties":{"center_id":"center_1914_23","year":1914,"name":"Акмолинский уезд","unit_name":"Акмолинский уезд","admin_parent":null,"population":341512.0,"source_layer":"adm1914_centers_with_cities.geojson","raw_objectid":23},"geometry":{"type":"Point","coordinates":[71.44115196653902,51.164276123888726]}},{"type":"Feature","properties":{"center_id":"center_1914_24","year":1914,"name":"Каркаралинский уезд","unit_name":"Каркаралинский уезд","admin_parent":null,"population":177200.0,"source_layer":"adm1914_centers_with_cities.geojson","raw_objectid":24},"geometry":{"type":"Point","coordinates":[75.49131023430613,49.415587222789426]}},{"type":"Feature","properties":{"center_id":"center_1914_25","year":1914,"name":"Атбасарский уезд","unit_name":"Атбасарский уезд","admin_parent":null,"population":156558.0,"source_layer":"adm1914_centers_with_cities.geojson","raw_objectid":25},"geometry":{"type":"Point","coordinates":[68.35340163323649,51.809237579198594]}},{"type":"Feature","properties":{"center_id":"center_1914_26","year":1914,"name":"Кокчетавский уезд","unit_name":"Кокчетавский уезд","admin_parent":null,"population":349241.0,"source_layer":"adm1914_centers_with_cities.geojson","raw_objectid":26},"geometry":{"type":"Point","coordinates":[69.38109698635712,53.277070699251134]}},{"type":"Feature","properties":{"center_id":"center_1914_27","year":1914,"name":"Петропавловский уезд","unit_name":"Петропавловский уезд","admin_parent":null,"population":293809.0,"source_layer":"adm1914_centers_with_cities.geojson","raw_objectid":27},"geometry":{"type":"Point","coordinates":[69.15638580036672,54.85467164842551]}},{"type":"Feature","properties":{"center_id":"center_1914_28","year":1914,"name":"Ново-Николаевск","unit_name":"в составе Томского уезда","admin_parent":null,"population":null,"source_layer":"adm1914_centers_with_cities.geojson","raw_objectid":28},"geometry":{"type":"Point","coordinates":[82.92186287971923,55.028339321892865]}},{"type":"Feature","properties":{"center_id":"center_1914_29","year":1914,"name":"Колывань","unit_name":"в составе Томского уезда","admin_parent":null,"population":null,"source_layer":"adm1914_centers_with_cities.geojson","raw_objectid":29},"geometry":{"type":"Point","coordinates":[82.72927840913619,55.310237133208666]}},{"type":"Feature","properties":{"center_id":"center_1914_30","year":1914,"name":"Тайга","unit_name":"в составе Томского уезда","admin_parent":null,"population":null,"source_layer":"adm1914_centers_with_cities.geojson","raw_objectid":30},"geometry":{"type":"Point","coordinates":[85.6180258091506,56.0646389702877]}},{"type":"Feature","properties":{"center_id":"center_1914_31","year":1914,"name":"Татарск","unit_name":"в составе Каинского уезда","admin_parent":null,"population":null,"source_layer":"adm1914_centers_with_cities.geojson","raw_objectid":31},"geometry":{"type":"Point","coordinates":[75.99288076523578,55.219350675058955]}},{"type":"Feature","properties":{"center_id":"center_1914_32","year":1914,"name":"Боготол","unit_name":"В составе Мариинского уезда","admin_parent":null,"population":null,"source_layer":"adm1914_centers_with_cities.geojson","raw_objectid":32},"geometry":{"type":"Point","coordinates":[89.53109232244374,56.20780760231135]}},{"type":"Feature","properties":{"center_id":"center_1914_33","year":1914,"name":"Нарым","unit_name":"в составе Томского уезда","admin_parent":null,"population":null,"source_layer":"adm1914_centers_with_cities.geojson","raw_objectid":33},"geometry":{"type":"Point","coordinates":[81.5928332511635,58.92308938351093]}},{"type":"Feature","properties":{"center_id":"center_1914_34","year":1914,"name":"Кокпекты","unit_name":"В составе Зайсанского уезда","admin_parent":null,"population":null,"source_layer":"adm1914_centers_with_cities.geojson","raw_objectid":34},"geometry":{"type":"Point","coordinates":[82.38234478659813,48.75357244685211]}}]}