{
"type": "FeatureCollection",
"name": "centers_1914",
"crs": { "type": "name", "properties": { "name": "urn:ogc:def:crs:OGC:1.3:CRS84" } },
"features": [
{ "type": "Feature", "properties": { "center_id": "center_1914_1", "year": 1914, "name": "1496331", "unit_name": "Барнаульский уезд", "admin_parent": null, "population": 1496331.0, "source_layer": "adm1914_centers_with_cities.geojson", "raw_objectid": 1 }, "geometry": { "type": "Point", "coordinates": [ 83.713171568541625, 53.341958242221537 ] } },
{ "type": "Feature", "properties": { "center_id": "center_1914_2", "year": 1914, "name": "Бийский уезд", "unit_name": "Бийский уезд", "admin_parent": null, "population": 497057.0, "source_layer": "adm1914_centers_with_cities.geojson", "raw_objectid": 2 }, "geometry": { "type": "Point", "coordinates": [ 85.180722669753379, 52.545325298908949 ] } },
{ "type": "Feature", "properties": { "center_id": "center_1914_3", "year": 1914, "name": "Змеиногорский уезд", "unit_name": "Змеиногорский уезд", "admin_parent": null, "population": 469517.0, "source_layer": "adm1914_centers_with_cities.geojson", "raw_objectid": 3 }, "geometry": { "type": "Point", "coordinates": [ 82.182589587023116, 51.163057391419365 ] } },
{ "type": "Feature", "properties": { "center_id": "center_1914_4", "year": 1914, "name": "Кузнецкий уезд", "unit_name": "Кузнецкий уезд", "admin_parent": null, "population": 336673.0, "source_layer": "adm1914_centers_with_cities.geojson", "raw_objectid": 4 }, "geometry": { "type": "Point", "coordinates": [ 87.142269125310776, 53.750871170803734 ] } },
{ "type": "Feature", "properties": { "center_id": "center_1914_5", "year": 1914, "name": "Каинск", "unit_name": "Каинский уезд", "admin_parent": null, "population": 409689.0, "source_layer": "adm1914_centers_with_cities.geojson", "raw_objectid": 5 }, "geometry": { "type": "Point", "coordinates": [ 78.297636844981554, 55.460590324500657 ] } },
{ "type": "Feature", "properties": { "center_id": "center_1914_6", "year": 1914, "name": "Томский уезд", "unit_name": "Томский уезд", "admin_parent": null, "population": 678161.0, "source_layer": "adm1914_centers_with_cities.geojson", "raw_objectid": 6 }, "geometry": { "type": "Point", "coordinates": [ 84.980304585363882, 56.501492544627631 ] } },
{ "type": "Feature", "properties": { "center_id": "center_1914_7", "year": 1914, "name": "Мариинский уезд", "unit_name": "Мариинский уезд", "admin_parent": null, "population": 294217.0, "source_layer": "adm1914_centers_with_cities.geojson", "raw_objectid": 7 }, "geometry": { "type": "Point", "coordinates": [ 87.738130311229952, 56.198970891880407 ] } },
{ "type": "Feature", "properties": { "center_id": "center_1914_8", "year": 1914, "name": "Павлодарский уезд", "unit_name": "Павлодарский уезд", "admin_parent": null, "population": 201200.0, "source_layer": "adm1914_centers_with_cities.geojson", "raw_objectid": 8 }, "geometry": { "type": "Point", "coordinates": [ 76.978764382003362, 52.300885949500611 ] } },
{ "type": "Feature", "properties": { "center_id": "center_1914_9", "year": 1914, "name": "Семипалатинский уезд", "unit_name": "Семипалатинский уезд", "admin_parent": null, "population": 222100.0, "source_layer": "adm1914_centers_with_cities.geojson", "raw_objectid": 9 }, "geometry": { "type": "Point", "coordinates": [ 80.274123557524916, 50.408664926942237 ] } },
{ "type": "Feature", "properties": { "center_id": "center_1914_10", "year": 1914, "name": "Усть-Каменогорский уезд", "unit_name": "Усть-Каменогорский уезд", "admin_parent": null, "population": 149200.0, "source_layer": "adm1914_centers_with_cities.geojson", "raw_objectid": 10 }, "geometry": { "type": "Point", "coordinates": [ 82.60389492956277, 49.958395870641141 ] } },
{ "type": "Feature", "properties": { "center_id": "center_1914_11", "year": 1914, "name": "Зайсанский уезд", "unit_name": "Зайсанский уезд", "admin_parent": null, "population": 125200.0, "source_layer": "adm1914_centers_with_cities.geojson", "raw_objectid": 11 }, "geometry": { "type": "Point", "coordinates": [ 84.874022267544362, 47.482045968869855 ] } },
{ "type": "Feature", "properties": { "center_id": "center_1914_12", "year": 1914, "name": "Омский уезд", "unit_name": "Омский уезд", "admin_parent": null, "population": 384423.0, "source_layer": "adm1914_centers_with_cities.geojson", "raw_objectid": 12 }, "geometry": { "type": "Point", "coordinates": [ 73.392062901833427, 54.979556913787391 ] } },
{ "type": "Feature", "properties": { "center_id": "center_1914_13", "year": 1914, "name": "Тарский уезд", "unit_name": "Тарский уезд", "admin_parent": null, "population": 267244.0, "source_layer": "adm1914_centers_with_cities.geojson", "raw_objectid": 13 }, "geometry": { "type": "Point", "coordinates": [ 74.369695031880639, 56.89828157424531 ] } },
{ "type": "Feature", "properties": { "center_id": "center_1914_14", "year": 1914, "name": "Тюкалинский уезд", "unit_name": "Тюкалинский уезд", "admin_parent": null, "population": 355288.0, "source_layer": "adm1914_centers_with_cities.geojson", "raw_objectid": 14 }, "geometry": { "type": "Point", "coordinates": [ 72.204927068222659, 55.862737098564743 ] } },
{ "type": "Feature", "properties": { "center_id": "center_1914_15", "year": 1914, "name": "Ишимский уезд", "unit_name": "Ишимский уезд", "admin_parent": null, "population": 393237.0, "source_layer": "adm1914_centers_with_cities.geojson", "raw_objectid": 15 }, "geometry": { "type": "Point", "coordinates": [ 69.45106111792559, 56.108435975511824 ] } },
{ "type": "Feature", "properties": { "center_id": "center_1914_16", "year": 1914, "name": "Курганский уезд", "unit_name": "Курганский уезд", "admin_parent": null, "population": 331704.0, "source_layer": "adm1914_centers_with_cities.geojson", "raw_objectid": 16 }, "geometry": { "type": "Point", "coordinates": [ 65.321233915843408, 55.461515894609562 ] } },
{ "type": "Feature", "properties": { "center_id": "center_1914_17", "year": 1914, "name": "Тюменский уезд", "unit_name": "Тюменский уезд", "admin_parent": null, "population": 110535.0, "source_layer": "adm1914_centers_with_cities.geojson", "raw_objectid": 17 }, "geometry": { "type": "Point", "coordinates": [ 65.533069758173966, 57.148516429553958 ] } },
{ "type": "Feature", "properties": { "center_id": "center_1914_18", "year": 1914, "name": "Ялуторовский уезд", "unit_name": "Ялуторовский уезд", "admin_parent": null, "population": 231227.0, "source_layer": "adm1914_centers_with_cities.geojson", "raw_objectid": 18 }, "geometry": { "type": "Point", "coordinates": [ 66.308583285812318, 56.657042711518216 ] } },
{ "type": "Feature", "properties": { "center_id": "center_1914_19", "year": 1914, "name": "Туринский уезд", "unit_name": "Туринский уезд", "admin_parent": null, "population": 99469.0, "source_layer": "adm1914_centers_with_cities.geojson", "raw_objectid": 19 }, "geometry": { "type": "Point", "coordinates": [ 63.67513337950254, 58.048229293492241 ] } },
{ "type": "Feature", "properties": { "center_id": "center_1914_20", "year": 1914, "name": "Берёзовский уезд", "unit_name": "Берёзовский уезд", "admin_parent": null, "population": 26302.0, "source_layer": "adm1914_centers_with_cities.geojson", "raw_objectid": 20 }, "geometry": { "type": "Point", "coordinates": [ 65.025829805874324, 63.92305896038085 ] } },
{ "type": "Feature", "properties": { "center_id": "center_1914_21", "year": 1914, "name": "Сургутский уезд", "unit_name": "Сургутский уезд", "admin_parent": null, "population": 9360.0, "source_layer": "adm1914_centers_with_cities.geojson", "raw_objectid": 21 }, "geometry": { "type": "Point", "coordinates": [ 73.389458681333195, 61.256010821411444 ] } },
{ "type": "Feature", "properties": { "center_id": "center_1914_22", "year": 1914, "name": "Тобольский уезд", "unit_name": "Тобольский уезд", "admin_parent": null, "population": 138023.0, "source_layer": "adm1914_centers_with_cities.geojson", "raw_objectid": 22 }, "geometry": { "type": "Point", "coordinates": [ 68.300053983533076, 58.209592593139668 ] } },
{ "type": "Feature", "properties": { "center_id": "center_1914_23", "year": 1914, "name": "Акмолинский уезд", "unit_name": "Акмолинский уезд", "admin_parent": null, "population": 341512.0, "source_layer": "adm1914_centers_with_cities.geojson", "raw_objectid": 23 }, "geometry": { "type": "Point", "coordinates": [ 71.441151966539024, 51.164276123888726 ] } },
{ "type": "Feature", "properties": { "center_id": "center_1914_24", "year": 1914, "name": "Каркаралинский уезд", "unit_name": "Каркаралинский уезд", "admin_parent": null, "population": 177200.0, "source_layer": "adm1914_centers_with_cities.geojson", "raw_objectid": 24 }, "geometry": { "type": "Point", "coordinates": [ 75.491310234306127, 49.415587222789426 ] } },
{ "type": "Feature", "properties": { "center_id": "center_1914_25", "year": 1914, "name": "Атбасарский уезд", "unit_name": "Атбасарский уезд", "admin_parent": null, "population": 156558.0, "source_layer": "adm1914_centers_with_cities.geojson", "raw_objectid": 25 }, "geometry": { "type": "Point", "coordinates": [ 68.353401633236487, 51.809237579198594 ] } },
{ "type": "Feature", "properties": { "center_id": "center_1914_26", "year": 1914, "name": "Кокчетавский уезд", "unit_name": "Кокчетавский уезд", "admin_parent": null, "population": 349241.0, "source_layer": "adm1914_centers_with_cities.geojson", "raw_objectid": 26 }, "geometry": { "type": "Point", "coordinates": [ 69.381096986357122, 53.277070699251134 ] } },
{ "type": "Feature", "properties": { "center_id": "center_1914_27", "year": 1914, "name": "Петропавловский уезд", "unit_name": "Петропавловский уезд", "admin_parent": null, "population": 293809.0, "source_layer": "adm1914_centers_with_cities.geojson", "raw_objectid": 27 }, "geometry": { "type": "Point", "coordinates": [ 69.156385800366721, 54.854671648425509 ] } },
{ "type": "Feature", "properties": { "center_id": "center_1914_28", "year": 1914, "name": "Ново-Николаевск", "unit_name": "в составе Томского уезда", "admin_parent": null, "population": null, "source_layer": "adm1914_centers_with_cities.geojson", "raw_objectid": 28 }, "geometry": { "type": "Point", "coordinates": [ 82.921862879719228, 55.028339321892865 ] } },
{ "type": "Feature", "properties": { "center_id": "center_1914_29", "year": 1914, "name": "Колывань", "unit_name": "в составе Томского уезда", "admin_parent": null, "population": null, "source_layer": "adm1914_centers_with_cities.geojson", "raw_objectid": 29 }, "geometry": { "type": "Point", "coordinates": [ 82.729278409136185, 55.310237133208666 ] } },
{ "type": "Feature", "properties": { "center_id": "center_1914_30", "year": 1914, "name": "Тайга", "unit_name": "в составе Томского уезда", "admin_parent": null, "population": null, "source_layer": "adm1914_centers_with_cities.geojson", "raw_objectid": 30 }, "geometry": { "type": "Point", "coordinates": [ 85.618025809150595, 56.064638970287703 ] } },
{ "type": "Feature", "properties": { "center_id": "center_1914_31", "year": 1914, "name": "Татарск", "unit_name": "в составе Каинского уезда", "admin_parent": null, "population": null, "source_layer": "adm1914_centers_with_cities.geojson", "raw_objectid": 31 }, "geometry": { "type": "Point", "coordinates": [ 75.992880765235782, 55.219350675058955 ] } },
{ "type": "Feature", "properties": { "center_id": "center_1914_32", "year": 1914, "name": "Боготол", "unit_name": "В составе Мариинского уезда", "admin_parent": null, "population": null, "source_layer": "adm1914_centers_with_cities.geojson", "raw_objectid": 32 }, "geometry": { "type": "Point", "coordinates": [ 89.53109232244374, 56.207807602311348 ] } },
{ "type": "Feature", "properties": { "center_id": "center_1914_33", "year": 1914, "name": "Нарым", "unit_name": "в составе Томского уезда", "admin_parent": null, "population": null, "source_layer": "adm1914_centers_with_cities.geojson", "raw_objectid": 33 }, "geometry": { "type": "Point", "coordinates": [ 81.592833251163498, 58.923089383510927 ] } },
{ "type": "Feature", "properties": { "center_id": "center_1914_34", "year": 1914, "name": "Кокпекты", "unit_name": "В составе Зайсанского уезда", "admin_parent": null, "population": null, "source_layer": "adm1914_centers_with_cities.geojson", "raw_objectid": 34 }, "geometry": { "type": "Point", "coordinates": [ 82.382344786598125, 48.753572446852111 ] } }
]
}
